station_id,station_name,lon,lat
21764,黒磯,140.060204,36.970128
21785,高久,140.087346,36.996572
21765,黒田原,140.119586,37.022847999999996
21802,豊原,140.155066,37.055014
22828,東京,139.76610300000002,35.681391
22751,新橋,139.758587,35.666195
22709,品川,139.738999,35.62876
23126,川崎,139.697485,35.531310999999995
23368,横浜,139.622704,35.466195
23251,戸塚,139.53428200000002,35.400432
23096,大船,139.531127,35.353466
23304,藤沢,139.487293,35.338882
23238,辻堂,139.44710600000002,35.336847
23234,茅ケ崎,139.407197,35.330740999999996
23298,平塚,139.349063,35.327647
23091,大磯,139.31338799999997,35.311299
23269,二宮,139.256925,35.298644
23156,国府津,139.212932,35.280832000000004
23124,鴨宮,139.180147,35.275744
23098,小田原,139.15577199999998,35.256225
23285,早川,139.145014,35.238875
23271,根府川,139.138504,35.202455
23324,真鶴,139.132148,35.156837
23363,湯河原,139.102142,35.146178000000006
22559,大崎,139.72843899999998,35.619772
22691,五反田,139.72382199999998,35.625974
23018,目黒,139.715775,35.633922999999996
22548,恵比寿,139.71007,35.646685
22715,渋谷,139.701238,35.658871000000005
22916,原宿,139.70259199999998,35.670646000000005
23043,代々木,139.702042,35.683061
22741,新宿,139.70046399999998,35.689729
22730,新大久保,139.700261,35.700875
22790,高田馬場,139.703715,35.712677
23019,目白,139.706228,35.720476
22513,池袋,139.71108600000002,35.730256
22562,大塚,139.728584,35.731412
22760,巣鴨,139.739303,35.733445
22683,駒込,139.748053,35.736825
22802,田端,139.76122900000001,35.737781
22880,西日暮里,139.76685700000002,35.731953999999995
22862,日暮里,139.771287,35.727908
22531,鶯谷,139.77801499999998,35.721484000000004
22528,上野,139.777043,35.71379
22570,御徒町,139.774727,35.707282
22492,秋葉原,139.77328799999998,35.698619
22617,神田,139.77064099999998,35.691173
23036,有楽町,139.76380600000002,35.675441
22914,浜松町,139.757135,35.655390999999995
22807,田町,139.747575,35.645736
29818,高輪ゲートウェイ,139.7407,35.6355
23195,尻手,139.684233,35.530939000000004
23355,矢向,139.68055,35.539408
23104,鹿島田,139.674964,35.551459
23300,平間,139.67103899999998,35.560565000000004
23343,向河原,139.66725,35.572891
23345,武蔵小杉,139.65963,35.57669
23348,武蔵中原,139.640613,35.581497999999996
23347,武蔵新城,139.62941899999998,35.587369
23349,武蔵溝ノ口,139.61139,35.598923
23239,津田山,139.600002,35.604259000000006
23139,久地,139.592714,35.610363
23188,宿河原,139.579565,35.615429
23275,登戸,139.570028,35.620889
23257,中野島,139.5501,35.630134999999996
23076,稲田堤,139.535173,35.633701
23029,矢野口,139.520849,35.641304999999996
22523,稲城長沼,139.502811,35.644184
22996,南多摩,139.489781,35.649249
22963,府中本町,139.477142,35.665766
22966,分倍河原,139.468798,35.668493
29639,西府,139.457477,35.670912
23031,谷保,139.446724,35.681377000000005
23025,矢川,139.431611,35.685078999999995
22871,西国立,139.423887,35.69375
22799,立川,139.413704,35.698202
23277,八丁畷,139.69144599999998,35.523071
23127,川崎新町,139.699348,35.518234
29768,小田栄,139.70494399999998,35.5145
23284,浜川崎,139.713483,35.510428000000005
23244,鶴見,139.67614,35.508387
23160,国道,139.675599,35.50083
23246,鶴見小野,139.681226,35.497005
23313,弁天橋,139.689451,35.495758
23057,浅野,139.695739,35.497555
23206,新芝浦,139.7001,35.491914
23081,海芝浦,139.700603,35.486073
23063,安善,139.700663,35.499668
23092,大川,139.711038,35.495646
23346,武蔵白石,139.706513,35.501912
23194,昭和,139.723897,35.506836
25852,扇町,139.722147,35.501452
22635,北府中,139.471792,35.68088
22872,西国分寺,139.465994,35.699744
22738,新小平,139.470745,35.73128
22728,新秋津,139.493592,35.778331
22113,東所沢,139.513878,35.79461
22090,新座,139.556328,35.80381
22016,北朝霞,139.587322,35.815475
22092,西浦和,139.62770700000002,35.844139
22151,武蔵浦和,139.647974,35.846047
22142,南浦和,139.669125,35.847648
22109,東浦和,139.704627,35.864079
22111,東川口,139.744087,35.875246000000004
22145,南越谷,139.790499,35.876106
29601,越谷レイクタウン,139.822178,35.876353
22165,吉川,139.843162,35.87662
29697,吉川美南,139.85816699999998,35.868056
22061,新三郷,139.869341,35.858667
26640,三郷,139.886341,35.845003999999996
22455,南流山,139.903865,35.838035
22332,新松戸,139.921076,35.825466999999996
22334,新八柱,139.938393,35.792013
22416,東松戸,139.943848,35.770610999999995
22194,市川大野,139.951227,35.755432
22429,船橋法典,139.966771,35.730435
22401,西船橋,139.959536,35.707283000000004
23289,東神奈川,139.633466,35.47804
23094,大口,139.646288,35.492375
23130,菊名,139.630147,35.509749
23212,新横浜,139.617348,35.506824
23163,小机,139.59978700000002,35.508533
23123,鴨居,139.56707,35.510954999999996
23259,中山,139.539692,35.514745
23250,十日市場,139.51668999999998,35.526253999999994
23260,長津田,139.49468000000002,35.531698
22861,成瀬,139.472875,35.535412
22976,町田,139.445579,35.542004
23165,古淵,139.419151,35.556055
23311,淵野辺,139.395075,35.568784
23357,矢部,139.386373,35.573275
23177,相模原,139.37100700000002,35.58113
23281,橋本,139.34458600000002,35.594975
22481,相原,139.33168999999998,35.60694
29177,八王子みなみ野,139.330678,35.630664
22597,片倉,139.34118999999998,35.639703999999995
22905,八王子,139.338998,35.655555
23180,桜木町,139.63088100000002,35.451112
23129,関内,139.636984,35.443335999999995
23067,石川町,139.642934,35.438808
23359,山手,139.646425,35.426891
23270,根岸,139.636034,35.415887
23073,磯子,139.61791599999998,35.399881
23207,新杉田,139.619483,35.386863
23365,洋光台,139.596852,35.378785
23157,港南台,139.576243,35.375183
23320,本郷台,139.550159,35.36787
22865,西大井,139.721729,35.601616
23204,新川崎,139.671481,35.551784000000005
23316,保土ケ谷,139.599671,35.446746000000005
23291,東戸塚,139.556794,35.430353000000004
23132,北鎌倉,139.54513400000002,35.337198
23116,鎌倉,139.550428,35.318793
23217,逗子,139.578292,35.297391999999995
23290,東逗子,139.601768,35.298781
23224,田浦,139.63772600000001,35.29271
23366,横須賀,139.655855,35.284022
23135,衣笠,139.661193,35.257090999999996
23141,久里浜,139.700862,35.233107000000004
23134,北茅ケ崎,139.407569,35.339166999999996
23100,香川,139.400044,35.35655
23183,寒川,139.387452,35.367579
23341,宮山,139.379639,35.382261
23140,倉見,139.378422,35.395098
23110,門沢橋,139.38013899999999,35.406760999999996
23187,社家,139.377281,35.420543
23060,厚木,139.378631,35.44375
23088,海老名,139.389328,35.454282
22526,入谷,139.391913,35.478478
23222,相武台下,139.38629699999998,35.492734000000006
23202,下溝,139.380428,35.518516
23286,原当麻,139.375355,35.528978
23287,番田,139.362988,35.545392
23122,上溝,139.36315,35.557623
23335,南橋本,139.352484,35.580420000000004
23041,四ツ谷,139.73064399999998,35.686040999999996
22637,吉祥寺,139.57976499999998,35.703119
22986,三鷹,139.560325,35.702683
22676,国分寺,139.480841,35.700123
22949,日野,139.39393,35.679244
22840,豊田,139.381495,35.659502
22881,西八王子,139.31264,35.656621
22787,高尾,139.282288,35.642026
23174,相模湖,139.1885,35.617335
23306,藤野,139.15239,35.615918
22582,御茶ノ水,139.76495500000001,35.699605
22849,中野,139.66583500000002,35.705765
22671,高円寺,139.649664,35.705326
22494,阿佐ケ谷,139.635868,35.704817999999996
22573,荻窪,139.620109,35.704522999999995
22867,西荻窪,139.59936100000002,35.703842
23008,武蔵境,139.54340200000001,35.702083
22933,東小金井,139.52483700000002,35.701643
23006,武蔵小金井,139.506483,35.701337
22646,国立,139.44634,35.69923
22936,東中野,139.684436,35.706528999999996
22558,大久保,139.69732,35.700784000000006
22781,千駄ケ谷,139.711644,35.681231
22710,信濃町,139.720729,35.680031
22520,市ケ谷,139.73558300000002,35.691
22507,飯田橋,139.74514299999998,35.701834999999996
22758,水道橋,139.754312,35.702039
22496,浅草橋,139.784427,35.697403
23048,両国,139.79333400000002,35.69579
22640,錦糸町,139.81413600000002,35.696802000000005
22612,亀戸,139.826262,35.697345
22952,平井,139.842181,35.70643
22734,新小岩,139.857777,35.716903
22670,小岩,139.881755,35.733207
22193,市川,139.908142,35.728903
22463,本八幡,139.92741,35.720898
22320,下総中山,139.94309199999998,35.714276
22427,船橋,139.98470700000001,35.701865000000005
22415,東船橋,140.00393,35.699811
22370,津田沼,140.020179,35.691367
22439,幕張本郷,140.042241,35.672664000000005
22438,幕張,140.057899,35.6594
22327,新検見川,140.073025,35.65169
22197,稲毛,140.09256000000002,35.637264
22398,西千葉,140.103337,35.622639
22361,千葉,140.112837,35.613425
22750,新日本橋,139.77323,35.688687
22918,馬喰町,139.78238000000002,35.693365
22411,東千葉,140.122261,35.617014000000005
22368,都賀,140.149222,35.636088
22479,四街道,140.165023,35.662756
22465,物井,140.20026299999998,35.68566
22306,佐倉,140.226722,35.709742999999996
22454,南酒々井,140.267828,35.704217
24837,榎戸,140.288136,35.683966999999996
22468,八街,140.317304,35.663228000000004
22408,日向,140.362447,35.628402
22393,成東,140.410109,35.608513
25443,松尾,140.45758700000002,35.63604
22477,横芝,140.490736,35.661739000000004
22191,飯倉,140.52232800000002,35.685638
22475,八日市場,140.552419,35.699317
22418,干潟,140.603304,35.718308
22177,旭,140.65504099999998,35.721831
22190,飯岡,140.683896,35.729339
22272,倉橋,140.71401799999998,35.737836
22311,猿田,140.7374,35.747383
22443,松岸,140.795143,35.739385999999996
22354,銚子,140.827557,35.729449
22877,西立川,139.39355600000002,35.703526000000004
22935,東中神,139.38452900000001,35.706337
22847,中神,139.375816,35.709058
22490,昭島,139.361564,35.713305
22895,拝島,139.343468,35.721278000000005
22533,牛浜,139.333677,35.734547
22955,福生,139.32776299999998,35.742456
22915,羽村,139.31618799999998,35.758072999999996
22577,小作,139.302233,35.776047999999996
22601,河辺,139.284032,35.784729999999996
22926,東青梅,139.272841,35.789768
22552,青梅,139.258096,35.790512
23002,宮ノ平,139.23728899999998,35.787545
22948,日向和田,139.229515,35.788665
22515,石神前,139.225096,35.79683
22959,二俣尾,139.216161,35.803946
22509,軍畑,139.207431,35.807382000000004
22701,沢井,139.193324,35.80594
22988,御嶽,139.18258899999998,35.801468
22616,川井,139.16429,35.813697
22687,古里,139.152102,35.816247
22908,鳩ノ巣,139.12893200000002,35.815127000000004
22727,白丸,139.11486100000002,35.811735
22576,奥多摩,139.09696100000002,35.809357
22648,熊川,139.33584,35.728321
22922,東秋留,139.31166499999998,35.725904
22489,秋川,139.286715,35.727998
23013,武蔵引田,139.26990700000002,35.729711
23014,武蔵増戸,139.256355,35.730961
23005,武蔵五日市,139.228039,35.732248
22634,北八王子,139.363348,35.669232
22686,小宮,139.368481,35.685798999999996
22939,東福生,139.33594,35.745810999999996
22899,箱根ケ崎,139.34680500000002,35.771158
22005,金子,139.328546,35.810821999999995
22114,東飯能,139.325965,35.852928000000006
22038,高麗川,139.33809,35.896328000000004
22158,毛呂,139.30923700000002,35.940806
21993,越生,139.299437,35.962559000000006
22137,明覚,139.28878899999998,36.003309
22572,小川町,139.260412,36.05903
22072,竹沢,139.229952,36.075466
21998,折原,139.19520500000002,36.096296
22169,寄居,139.194224,36.118013
22163,用土,139.200758,36.153858
22134,松久,139.182127,36.172938
22035,児玉,139.13582,36.192624
22074,丹荘,139.102306,36.216668
21880,群馬藤岡,139.08338,36.250336
21873,北藤岡,139.080779,36.282469
21876,倉賀野,139.049474,36.300216
21913,高崎,139.01235400000002,36.322239
22574,尾久,139.753846,35.746829999999996
22487,赤羽,139.72092800000001,35.778026000000004
21982,浦和,139.65710900000002,35.858496
29315,さいたま新都心,139.633587,35.893867
21987,大宮,139.62405,35.906439
22084,土呂,139.63214,35.931996999999996
22110,東大宮,139.640291,35.948751
22100,蓮田,139.65301599999998,35.981272
22051,白岡,139.66682600000001,36.01774
22058,新白岡,139.67208,36.038732
22028,久喜,139.67727,36.065684000000005
22118,東鷲宮,139.67913000000001,36.089428000000005
22030,栗橋,139.694177,36.136852000000005
21631,古河,139.709726,36.194375
21812,野木,139.73472900000002,36.229963
21823,間々田,139.76103899999998,36.257907
21746,小山,139.806241,36.312746999999995
21767,小金井,139.842232,36.374435
21783,自治医大,139.854524,36.39543
28445,石橋,139.866536,36.43651
21784,雀宮,139.876811,36.493845
21736,宇都宮,139.89838899999998,36.559246
26306,岡本,139.94436299999998,36.598182
21819,宝積寺,139.979487,36.631703
21735,氏家,139.9621,36.681696
21750,蒲須坂,139.95046100000002,36.720727000000004
21748,片岡,139.945665,36.754557
21830,矢板,139.93291200000002,36.80655
26115,野崎,139.957752,36.843722
21810,西那須野,139.98638300000002,36.883726
21804,那須塩原,140.020694,36.931956
22983,三河島,139.777131,35.733383
22995,南千住,139.7994,35.734033000000004
22630,北千住,139.804872,35.749677
22499,綾瀬,139.825019,35.762221999999994
22611,亀有,139.847573,35.766527
22598,金町,139.870482,35.769582
22444,松戸,139.900779,35.784471999999994
22262,北松戸,139.911528,35.800459000000004
22447,馬橋,139.917305,35.811682
22258,北小金,139.931303,35.833436
22452,南柏,139.954111,35.844654999999996
22228,柏,139.971148,35.862316
22257,北柏,139.988035,35.875623
22183,我孫子,140.01046599999998,35.87279
22372,天王台,140.04121,35.872558000000005
21673,取手,140.063004,35.89553
21705,藤代,140.11825100000001,35.920565
21637,龍ケ崎市,140.138217,35.930066
21594,牛久,140.14103899999998,35.975314000000004
29220,ひたち野うしく,140.158408,36.007996
21582,荒川沖,140.16592,36.030552
21663,土浦,140.20623799999998,36.078644
21625,神立,140.248615,36.120424
27852,高浜,140.294745,36.163882
21583,石岡,140.279709,36.191554
21685,羽鳥,140.28679,36.247661
21593,岩間,140.276493,36.295508
21672,友部,140.306306,36.350597
21595,内原,140.35282,36.370111
21579,赤塚,140.415248,36.381755
29275,偕楽園,140.456292,36.373041
21710,水戸,140.47676,36.370911
21615,勝田,140.524482,36.394033
21638,佐和,140.540477,36.430409000000004
21666,東海,140.56583500000002,36.465378
21603,大甕,140.61936200000002,36.513052
21698,常陸多賀,140.63268200000002,36.552145
21691,日立,140.66188300000002,36.590408000000004
21605,小木津,140.67526,36.636533
21622,十王,140.68623,36.671385
21655,高萩,140.716707,36.714873
21714,南中郷,140.729028,36.753501
21587,磯原,140.746366,36.790684000000006
21600,大津港,140.778001,36.846084999999995
22517,板橋,139.719507,35.745435
22754,十条,139.72223300000002,35.760321000000005
22626,北赤羽,139.70569,35.787007
22530,浮間舟渡,139.691341,35.791209
22082,戸田公園,139.678203,35.807906
22081,戸田,139.669548,35.817665000000005
22023,北戸田,139.661201,35.826883
22085,中浦和,139.6375,35.853769
22149,南与野,139.631117,35.867456
22168,与野本町,139.626075,35.880967999999996
22025,北与野,139.628521,35.890678
25085,日進,139.606111,35.931554999999996
22043,指扇,139.564951,35.917023
22148,南古谷,139.519082,35.903344
22012,川越,139.483078,35.906742
29640,西大宮,139.5797968,35.92228133
22095,西川越,139.459746,35.919090000000004
22135,的場,139.435376,35.917478
22001,笠幡,139.40622,35.907551
22152,武蔵高萩,139.371123,35.901728999999996
22150,宮原,139.609455,35.940256
21968,上尾,139.588434,35.973521999999996
22015,北上尾,139.577223,35.985632
21992,桶川,139.564274,35.998375
22024,北本,139.533591,36.032112
22033,鴻巣,139.509552,36.0592
22020,北鴻巣,139.476894,36.085529
25135,吹上,139.45311999999998,36.103062
22026,行田,139.432103,36.113879
22029,熊谷,139.389528,36.139627000000004
22000,籠原,139.330199,36.174479999999996
22121,深谷,139.28127,36.191344
21990,岡部,139.237622,36.205645000000004
22132,本庄,139.188299,36.236228999999994
22063,神保原,139.149172,36.25359
28656,新町,139.105457,36.272984
22433,本千葉,140.120987,35.601202
22341,蘇我,140.130767,35.582065
22251,鎌取,140.178583,35.562795
22432,誉田,140.213748,35.546996
22376,土気,140.26978300000002,35.530865999999996
22211,大網,140.311111,35.522427
22383,永田,140.31116200000002,35.503129
22434,本納,140.30758,35.48227
22333,新茂原,140.29983000000001,35.449477
22466,茂原,140.304121,35.426733
22471,八積,140.34536699999998,35.403971000000006
22230,上総一ノ宮,140.365138,35.373401
22379,東浪見,140.376706,35.34669
22343,太東,140.38118400000002,35.319942
22355,長者町,140.385021,35.295839
22448,三門,140.39156699999998,35.282377000000004
22216,大原,140.390864,35.251096999999994
22387,浪花,140.379428,35.222674
22224,御宿,140.35197,35.188028
22246,勝浦,140.312142,35.152722
22203,鵜原,140.278446,35.140828000000006
22233,上総興津,140.25048700000002,35.137146
22389,行川アイランド,140.22696200000001,35.118320000000004
22189,安房小湊,140.190337,35.128597
22186,安房天津,140.15448700000002,35.125473
22188,安房鴨川,140.103566,35.107465000000005
22406,浜野,140.13208899999998,35.551876
22473,八幡宿,140.120072,35.536189
22302,五井,140.089522,35.512985
22182,姉ケ崎,140.041749,35.4786
25074,長浦,139.995478,35.450234
22342,袖ケ浦,139.95788000000002,35.431996999999996
22202,巌根,139.933229,35.414285
22256,木更津,139.92611000000002,35.381668
22264,君津,139.89569699999998,35.333619
22175,青堀,139.85818899999998,35.330304
22215,大貫,139.855541,35.291661
22310,佐貫町,139.876106,35.260113
22243,上総湊,139.871016,35.221855
22349,竹岡,139.830159,35.197582000000004
22405,浜金谷,139.822141,35.168215000000004
22431,保田,139.838114,35.14148
22187,安房勝山,139.83338999999998,35.114022
22201,岩井,139.849839,35.093061999999996
22377,富浦,139.83781100000002,35.04614
22385,那古船形,139.851388,35.028987
22350,館山,139.861888,34.9959
22298,九重,139.911383,34.99752
22357,千倉,139.954738,34.976704
20325,千歳,139.966378,34.991701
22456,南三原,139.979204,35.021065
22480,和田浦,140.019569,35.041885
22210,江見,140.061026,35.062513
22426,太海,140.096229,35.081435
22894,八丁堀,139.777705,35.674617
22539,越中島,139.792713,35.667946
22708,潮見,139.817341,35.658702000000005
22733,新木場,139.827402,35.646172
22593,葛西臨海公園,139.861529,35.644391999999996
22435,舞浜,139.883714,35.636115000000004
22324,新浦安,139.912553,35.649526
22195,市川塩浜,139.923684,35.666554
22424,二俣新町,139.959525,35.691272999999995
22457,南船橋,139.99577299999999,35.681804
22330,新習志野,140.012825,35.667342
22226,海浜幕張,140.04191699999998,35.648373
22291,検見川浜,140.058888,35.637291
22198,稲毛海岸,140.074034,35.629501
22366,千葉みなと,140.10341,35.606171999999994
22314,酒々井,140.275271,35.731737
22391,成田,140.313853,35.777796
22269,久住,140.338929,35.832232
22388,滑河,140.347871,35.877078999999995
22317,下総神崎,140.41065700000001,35.8948
22214,大戸,140.457828,35.890004
22312,佐原,140.494074,35.894521999999995
22248,香取,140.532367,35.897856
22337,水郷,140.57018100000002,35.885508
22222,小見川,140.604587,35.849971000000004
22308,笹川,140.65571599999998,35.839753
22318,下総橘,140.702273,35.818673
22319,下総豊里,140.721011,35.792899
22313,椎柴,140.758875,35.765204
22409,東我孫子,140.047754,35.868945000000004
22300,湖北,140.07795900000002,35.867165
22185,新木,140.107048,35.862352
22422,布佐,140.13293000000002,35.849371000000005
22255,木下,140.147954,35.838817
26312,小林,140.193028,35.830783000000004
22179,安食,140.242051,35.835682
22321,下総松崎,140.27749,35.807806
22335,十二橋,140.545707,35.916984
21588,潮来,140.549473,35.936904
21683,延方,140.58875,35.958071999999994
21613,鹿島神宮,140.625676,35.970614000000005
22266,祇園,139.948111,35.391528
22236,上総清川,139.96561200000002,35.390981
22410,東清川,139.985847,35.390017
22478,横田,140.020138,35.386207
22417,東横田,140.03599499999999,35.386185
22437,馬来田,140.05848500000002,35.36681
22322,下郡,140.055372,35.355018
22221,小櫃,140.05979399999998,35.328252
22351,俵田,140.061386,35.314495
22273,久留里,140.07561299999998,35.295812
22419,平山,140.064682,35.274312
22241,上総松丘,140.064046,35.258226
22234,上総亀山,140.089479,35.233153
22421,福俵,140.341904,35.546170000000004
22373,東金,140.363743,35.560171999999994
22274,求名,140.39626,35.579947
22167,与野,139.63908500000002,35.884392999999996
22017,北浦和,139.645951,35.872053
22174,蕨,139.690357,35.827959
22094,西川口,139.70431200000002,35.815514
22011,川口,139.717472,35.801869
22934,東十条,139.72685800000002,35.763803
22549,王子,139.73809,35.752538
22607,上中里,139.745769,35.747279999999996
22556,大井町,139.73485,35.606257
22566,大森,139.728079,35.588903
22602,蒲田,139.716032,35.562517
23205,新子安,139.654776,35.487064000000004
21777,下野花岡,140.00860600000001,36.649965
21807,仁井田,140.029573,36.657271
21766,鴻野山,140.051656,36.666495
21738,大金,140.09565600000002,36.656275
21769,小塙,140.11656000000002,36.643095
26429,滝,140.138152,36.648558
21753,烏山,140.15507,36.650455
21893,渋川,139.00878600000001,36.491251
21863,金島,138.976421,36.529502
21852,祖母島,138.957042,36.540729
21859,小野上,138.922202,36.552524
21860,小野上温泉,138.90488200000001,36.556909000000005
21847,市城,138.882247,36.570685
21921,中之条,138.850908,36.585541
21879,群馬原町,138.82409099999998,36.571694
21887,郷原,138.801073,36.548759999999994
21958,矢倉,138.78428,36.552731
21849,岩島,138.759873,36.563239
21869,川原湯温泉,138.70767,36.55363
21922,長野原草津口,138.64959,36.5465
21877,群馬大津,138.628045,36.553792
21937,羽根尾,138.605502,36.550164
21942,袋倉,138.579141,36.543997
21950,万座・鹿沢口,138.55139499999999,36.531967
21857,大前,138.528966,36.513696
21871,北高崎,139.001076,36.338791
21881,群馬八幡,138.957433,36.337641
21844,安中,138.914368,36.331657
23659,磯部,138.84965,36.298396999999994
21947,松井田,138.797705,36.309151
21930,西松井田,138.786675,36.316067
21962,横川,138.737926,36.336009000000004
21692,常陸青柳,140.48449499999998,36.383582000000004
21700,常陸津田,140.482914,36.404171000000005
21633,後台,140.489899,36.423767
21643,下菅谷,140.494021,36.435394
21674,中菅谷,140.492626,36.445662
21618,上菅谷,140.492659,36.455378
21713,南酒出,140.498471,36.477361
26110,額田,140.503462,36.485704999999996
21620,河合,140.51711799999998,36.508241
21719,谷河原,140.52501999999998,36.519782
21693,常陸太田,140.52777,36.531225
21697,常陸鴻巣,140.467455,36.472414
21596,瓜連,140.450438,36.497805
21641,静,140.438103,36.506012
21694,常陸大宮,140.412431,36.547554
21657,玉川村,140.374334,36.579088
21682,野上原,140.390127,36.605878999999995
21721,山方宿,140.401244,36.6246
21677,中舟生,140.39224199999998,36.645683
21642,下小川,140.387021,36.668975
21634,西金,140.38646799999998,36.695479999999996
21617,上小川,140.378604,36.719215999999996
21704,袋田,140.379583,36.754718
21699,常陸大子,140.350855,36.770657
21647,下野宮,140.375282,36.815744
21607,小田林,139.85353,36.300775
21723,結城,139.873028,36.298056
21690,東結城,139.89148500000002,36.296554
21621,川島,139.916382,36.295918
21659,玉戸,139.93845,36.298547
21644,下館,139.97866000000002,36.304196999999995
21679,新治,140.039076,36.328082
23360,大和,140.073216,36.345566999999996
21592,岩瀬,140.10873899999999,36.359377
25105,羽黒,140.142947,36.355292
21703,福原,140.187249,36.351507
21589,稲田,140.21501,36.368903
21609,笠間,140.246515,36.373056
21640,宍戸,140.288243,36.344763
21793,鶴田,139.85881799999999,36.538319
21749,鹿沼,139.76296100000002,36.571222
21818,文挟,139.727778,36.637716
21776,下野大沢,139.73236699999998,36.686427
21733,今市,139.687348,36.720388
21806,日光,139.62215,36.7474
29494,高崎問屋町,139.017089,36.346097
22200,井野,139.023247,36.357457000000004
21898,新前橋,139.046924,36.378935999999996
21946,前橋,139.072833,36.383399
29259,前橋大島,139.109557,36.370585
21884,駒形,139.139483,36.354145
21845,伊勢崎,139.193704,36.326848999999996
21875,国定,139.242463,36.359018
21850,岩宿,139.29705800000002,36.395861
21874,桐生,139.33319,36.41109
25315,小俣,139.374416,36.374959999999994
21835,山前,139.41132199999998,36.347369
21727,足利,139.45629499999998,36.331888
29791,あしかがフラワーパーク,139.51861100000002,36.315166999999995
21801,富田,139.52865,36.316209
21771,佐野,139.578858,36.316668
21734,岩舟,139.65795500000002,36.326561
21740,大平下,139.697264,36.344315
21800,栃木,139.73103700000001,36.371912
21744,思川,139.781079,36.351044
21878,群馬総社,139.032221,36.415574
21957,八木原,139.019239,36.463738
21891,敷島,139.033897,36.537636
21917,津久田,139.042806,36.561063
21851,岩本,139.047438,36.602184
21934,沼田,139.03573400000002,36.642513
21888,後閑,139.000078,36.679547
21867,上牧,138.984533,36.735616
21953,水上,138.9688,36.778614000000005
21961,湯檜曽,138.986209,36.802683
21919,土合,138.967959,36.830696
23200,下曽我,139.183395,35.303554
23118,上大井,139.163508,35.321883
23173,相模金子,139.150753,35.33364
23323,松田,139.137417,35.346843
23294,東山北,139.10765,35.357637
23358,山北,139.08021200000002,35.360808
23354,谷峨,139.03823400000002,35.366561
22628,北池袋,139.716749,35.741283
22721,下板橋,139.714785,35.745721
22569,大山,139.702589,35.748398
22845,中板橋,139.694628,35.756214
26072,ときわ台,139.68901499999998,35.758771
22604,上板橋,139.67641,35.763596
22829,東武練馬,139.66196399999998,35.768698
22719,下赤塚,139.644482,35.770558
22860,成増,139.632708,35.777722999999995
22171,和光市,139.612434,35.788507
21969,朝霞,139.600321,35.796735999999996
22048,志木,139.575367,35.822105
22162,柳瀬川,139.562071,35.830723
22139,みずほ台,139.55078,35.838233
22077,鶴瀬,139.539347,35.845776
22124,ふじみ野,139.52338899999998,35.860735
22008,上福岡,139.511782,35.873855
22053,新河岸,139.49725700000002,35.890910999999996
22013,川越市,139.476989,35.914146
22596,霞ヶ関,139.442897,35.925635
22076,鶴ヶ島,139.423825,35.936771
22170,若葉,139.408782,35.948919000000004
22041,坂戸,139.394032,35.957181
22022,北坂戸,139.396932,35.972097999999995
22069,高坂,139.397747,36.002572
22115,東松山,139.401651,36.034608
22062,森林公園,139.374947,36.045239
29383,つきのわ,139.345541,36.04352
22155,武蔵嵐山,139.32828999999998,36.044001
22078,東武竹沢,139.23759099999998,36.0754
21995,男衾,139.234442,36.107415
22101,鉢形,139.208649,36.11378
22073,玉淀,139.200052,36.117071
22495,浅草,139.798214,35.711883
22859,とうきょうスカイツリー,139.809332,35.71043
22946,曳舟,139.81663400000002,35.718418
22943,東向島,139.819306,35.724323999999996
22600,鐘ヶ淵,139.820344,35.733712
22971,堀切,139.817727,35.742977
27207,牛田,139.811816,35.744555
22678,小菅,139.812935,35.759039
22692,五反野,139.809643,35.765852
22537,梅島,139.797916,35.772437
22863,西新井,139.790372,35.777322999999996
22796,竹ノ塚,139.790788,35.794368
22161,谷塚,139.80148300000002,35.814926
22068,草加,139.803397,35.828476
22059,新田,139.795391,35.854085999999995
22014,蒲生,139.791686,35.866851000000004
22034,越谷,139.78621299999998,35.887529
22021,北越谷,139.780008,35.901724
21986,大袋,139.77786799999998,35.92437
22067,せんげん台,139.77447800000002,35.935832
22071,武里,139.770675,35.949102
21974,一ノ割,139.766219,35.96412
22002,春日部,139.752345,35.980095
22019,北春日部,139.744012,35.990655
22120,姫宮,139.738674,36.004384
22079,東武動物公園,139.726901,36.024604
22173,和戸,139.701156,36.039562
22172,鷲宮,139.656945,36.09626
22102,花崎,139.633522,36.109891
22004,加須,139.595584,36.122991999999996
22147,南羽生,139.55696,36.14959
22103,羽生,139.533949,36.170345000000005
21868,川俣,139.52652,36.208778
21956,茂林寺前,139.527058,36.226331
21915,館林,139.527811,36.246606
21914,多々良,139.500179,36.273732
21725,県,139.472336,36.290615
21816,福居,139.45863400000002,36.305208
21796,東武和泉,139.45508999999998,36.315595
21728,足利市,139.44811299999998,36.32948
21833,野州山辺,139.431981,36.32633
21933,韮川,139.401704,36.307913
21856,太田,139.378779,36.294228000000004
21944,細谷,139.348509,36.282523
21870,木崎,139.312988,36.271392999999996
21909,世良田,139.282038,36.272931
21889,境町,139.256177,36.277190999999995
21885,剛志,139.223792,36.295428
21896,新伊勢崎,139.20181599999998,36.318052
22064,杉戸高野台,139.714582,36.051536
22040,幸手,139.71493700000002,36.074296999999994
22144,南栗橋,139.713004,36.113157
22054,新古河,139.686904,36.192686
22159,柳生,139.65964499999998,36.206756
29179,板倉東洋大前,139.648493,36.222404
21817,藤岡,139.64555,36.255628
21773,静和,139.68486399999998,36.31651
21778,新大平下,139.701886,36.339024
21781,新栃木,139.742308,36.390149
21747,合戦場,139.741057,36.407647
21729,家中,139.747344,36.429783
21798,東武金崎,139.749468,36.466288
21811,楡木,139.745164,36.507497
21829,樅山,139.741875,36.532667
21779,新鹿沼,139.74478,36.556998
21756,北鹿沼,139.73764599999998,36.580811
21731,板荷,139.707739,36.619476
21775,下小代,139.713849,36.651303000000006
21824,明神,139.712301,36.676565999999994
21774,下今市,139.692666,36.725629999999995
21751,上今市,139.681026,36.727962
22018,北大宮,139.624726,35.917159999999996
21988,大宮公園,139.632903,35.92374
21989,大和田,139.65051,35.929359000000005
22088,七里,139.665948,35.936464
21979,岩槻,139.693197,35.950239
22108,東岩槻,139.712192,35.963273
22083,豊春,139.72601,35.968014000000004
22160,八木崎,139.74178500000002,35.978376000000004
22123,藤の牛島,139.77803799999998,35.980259999999994
22146,南桜井,139.807988,35.980441
22253,川間,139.83385,35.979172
22386,七光台,139.85290600000002,35.970884000000005
22316,清水公園,139.85967,35.959364
22180,愛宕,139.864817,35.950154
22402,野田市,139.870728,35.943652
22205,梅郷,139.891086,35.931575
22207,運河,139.906063,35.914392
22208,江戸川台,139.91045,35.897344
22403,初石,139.91786100000002,35.883783
29403,流山おおたかの森,139.925898,35.872051
22378,豊四季,139.93929,35.86657
22325,新柏,139.966994,35.838128000000005
22441,増尾,139.976604,35.829704
22304,逆井,139.983812,35.823336
22347,高柳,139.99893600000001,35.808211
22460,六実,139.999195,35.793715
22326,新鎌ヶ谷,139.999455,35.780221000000004
22249,鎌ヶ谷,139.997266,35.763765
22440,馬込沢,139.992199,35.741586
22367,塚田,139.98285900000002,35.722102
22331,新船橋,139.979765,35.710993
22586,小村井,139.827595,35.710316
22923,東あずま,139.831883,35.707066999999995
22613,亀戸水神,139.83342199999998,35.699976
22813,大師前,139.781647,35.778989
21972,一本松,139.37006200000002,35.94008
22093,西大家,139.356321,35.931698
22010,川角,139.346426,35.937438
22129,武州長瀬,139.32556100000002,35.942023
22117,東毛呂,139.315303,35.947058
22127,武州唐沢,139.30912,35.952127000000004
21832,野州平川,139.753764,36.401554
21831,野州大塚,139.772574,36.408759
21826,壬生,139.80496000000002,36.422472
21763,国谷,139.823824,36.451442
21745,おもちゃのまち,139.829506,36.466774
21834,安塚,139.83557199999998,36.485678
21808,西川田,139.850247,36.514227000000005
21737,江曽島,139.860818,36.530951
21825,南宇都宮,139.872017,36.543783000000005
21797,東武宇都宮,139.880427,36.559373
21791,大谷向,139.691916,36.732240000000004
21739,大桑,139.713546,36.76079
21780,新高徳,139.710623,36.779816
21768,小佐越,139.70646499999998,36.802252
29784,東武ワールドスクウェア,139.70908300000002,36.808333000000005
21759,鬼怒川温泉,139.716552,36.822621999999996
21760,鬼怒川公園,139.72287,36.841
21782,新藤原,139.73296299999998,36.852505
28361,渡瀬,139.53751499999998,36.261807
21787,田島,139.564943,36.290229
21772,佐野市,139.57583,36.306153
21820,堀米,139.580279,36.328466999999996
21837,吉水,139.579337,36.345621
21790,田沼,139.581919,36.367094
21789,多田,139.592984,36.37809
21762,葛生,139.609207,36.397937
21890,三枚橋,139.35493799999998,36.313369
21908,治良門橋,139.341328,36.333039
21959,藪塚,139.315737,36.358737
21842,阿左美,139.306465,36.385065000000004
21897,新桐生,139.320078,36.39505
21839,相老,139.304178,36.410261
21840,赤城,139.27678400000002,36.425615
21923,成島,139.505682,36.249171000000004
21945,本中野,139.469546,36.25843
21892,篠塚,139.446077,36.256788
21938,東小泉,139.428456,36.259696000000005
24670,小泉町,139.42021,36.261562
21928,西小泉,139.408525,36.258712
21964,竜舞,139.40900200000002,36.278894
22707,椎名町,139.69436299999998,35.726572
22937,東長崎,139.683294,35.73003
22543,江古田,139.672814,35.737557
22697,桜台,139.662602,35.738797
22889,練馬,139.654368,35.737893
22854,中村橋,139.63745600000001,35.736767
22957,富士見台,139.62968999999998,35.735867
22891,練馬高野台,139.616749,35.740621999999995
22704,石神井公園,139.60698100000002,35.743563
22555,大泉学園,139.586732,35.749406
22970,保谷,139.567753,35.748222
22950,ひばりヶ丘,139.545852,35.751484999999995
22931,東久留米,139.533739,35.760445000000004
22639,清瀬,139.519917,35.772221
22491,秋津,139.49653899999998,35.778614000000005
22080,所沢,139.473324,35.786627
22096,西所沢,139.455959,35.789303000000004
22036,小手指,139.438016,35.800534999999996
22044,狭山ヶ丘,139.416975,35.810445
22153,武蔵藤沢,139.41273600000002,35.820963
21976,稲荷山公園,139.39842,35.845112
21978,入間市,139.39029399999998,35.842904
22125,仏子,139.36011499999998,35.83769
22157,元加治,139.345316,35.840579999999996
22106,飯能,139.318824,35.851189
22037,高麗,139.30441399999998,35.881982
22154,武蔵横手,139.280667,35.885256
22107,東吾野,139.260281,35.892439
21966,吾野,139.226787,35.908502
22091,西吾野,139.202425,35.927082
22047,正丸,139.181521,35.938324
21971,芦ヶ久保,139.135982,35.976504999999996
22164,横瀬,139.097818,35.985548
22066,西武秩父,139.083548,35.990061
22679,小竹向原,139.678572,35.743803
22739,新桜台,139.6683,35.74077
22835,豊島園,139.647979,35.742053999999996
22050,下山口,139.44109699999998,35.77941
22065,西武球場前,139.41966000000002,35.77093
22771,西武遊園地,139.442747,35.765881
23034,遊園地西,139.440166,35.769042
22768,西武新宿,139.7,35.696253999999996
22722,下落合,139.695391,35.715846
22844,中井,139.68696699999998,35.715106
22500,新井薬師前,139.672582,35.715778
22886,沼袋,139.663841,35.719458
22892,野方,139.652733,35.719658
22842,都立家政,139.644839,35.722313
22694,鷺ノ宮,139.63891999999998,35.722605
22720,下井草,139.624688,35.723852
22508,井荻,139.615303,35.72469
22603,上井草,139.602937,35.725326
22606,上石神井,139.592266,35.726189
23010,武蔵関,139.576417,35.7276
22940,東伏見,139.56352900000002,35.728761
22770,西武柳沢,139.552477,35.728621000000004
22801,田無,139.53925900000002,35.727307
22909,花小金井,139.513228,35.726129
22680,小平,139.48849099999998,35.736963
22650,久米川,139.472653,35.749575
22944,東村山,139.465839,35.760059999999996
22032,航空公園,139.465641,35.798272
22060,新所沢,139.457069,35.805854
21977,入曽,139.427304,35.832481
22045,狭山市,139.413015,35.856936
22057,新狭山,139.433499,35.873993
22143,南大塚,139.45418899999999,35.889663
22131,本川越,139.481125,35.913524
22896,萩山,139.476903,35.740759000000004
22571,小川,139.463493,35.737573
22945,東大和市,139.434249,35.732828999999995
22805,玉川上水,139.41843500000002,35.731751
23009,武蔵砂川,139.392319,35.728876
22769,西武立川,139.370124,35.7262
22767,西武園,139.448904,35.767684
22669,恋ヶ窪,139.463944,35.711385
22792,鷹の台,139.461155,35.723096999999996
22947,一橋学園,139.48003899999998,35.72217
22553,青梅街道,139.476628,35.730979999999995
23028,八坂,139.467676,35.744925
23015,武蔵大和,139.444008,35.756427
22737,新小金井,139.526603,35.695908
22809,多磨,139.51713,35.676821000000004
22632,白糸台,139.509862,35.666517
22621,競艇場前,139.499721,35.656232
22688,是政,139.48859199999998,35.656242
22661,京成上野,139.773571,35.711232
22753,新三河島,139.77383400000002,35.737140000000004
22977,町屋,139.781499,35.742354
22778,千住大橋,139.79693400000002,35.74243
22972,堀切菖蒲園,139.827545,35.747648999999996
22585,お花茶屋,139.83988,35.747585
22482,青砥,139.856292,35.745883
22665,京成高砂,139.866875,35.750932
22663,京成小岩,139.88371,35.742158
22544,江戸川,139.896226,35.737722999999995
22294,国府台,139.90322,35.736301
22196,市川真間,139.91171699999998,35.73121
22338,菅野,139.919413,35.728272
22220,鬼越,139.93793200000002,35.719776
22283,京成中山,139.94420300000002,35.716998
22412,東中山,139.952683,35.714385
22285,京成西船,139.95886299999998,35.711627
22225,海神,139.97188799999998,35.705888
22352,大神宮下,139.991431,35.693945
22428,船橋競馬場,139.997998,35.689606
22470,谷津,140.00765800000002,35.685257
22282,京成津田沼,140.024823,35.683640000000004
22277,京成大久保,140.048629,35.686015999999995
22459,実籾,140.068289,35.686852
22469,八千代台,140.09094199999998,35.701465
22278,京成大和田,140.108578,35.712309000000005
22247,勝田台,140.126053,35.715445
22315,志津,140.144982,35.717406
22474,ユーカリが丘,140.156354,35.721801
22276,京成臼井,140.180796,35.730017
22279,京成佐倉,140.229633,35.725204999999995
22212,大佐倉,140.25079,35.729908
22280,京成酒々井,140.27013200000002,35.736867
22340,宗吾参道,140.280975,35.752669
22293,公津の杜,140.294904,35.760446
22413,東成田,140.387225,35.770091
22667,京成曳舟,139.82001200000002,35.718441
23030,八広,139.828738,35.727687
23040,四ツ木,139.834918,35.731962
22666,京成立石,139.848558,35.738281
22714,柴又,139.87518799999998,35.756322999999995
22290,検見川,140.066656,35.652512
22275,京成稲毛,140.085505,35.637783
22451,みどり台,140.097413,35.624994
22399,西登戸,140.102801,35.617615
22328,新千葉,140.10855700000002,35.612455
22363,千葉中央,140.11780900000002,35.607354
22364,千葉寺,140.132236,35.590311
22218,大森台,140.149398,35.584126
26621,学園前,140.158416,35.560364
29035,おゆみ野,140.16626399999998,35.550028999999995
29036,ちはら台,140.17029,35.534017
22365,千葉ニュータウン中央,140.116159,35.800175
29322,印旛日本医大,140.203112,35.787512
29673,成田湯川,140.291596,35.799115
22699,笹塚,139.667251,35.673758
22814,代田橋,139.659413,35.671092
23017,明大前,139.650352,35.668758000000004
22725,下高井戸,139.641372,35.66615
22696,桜上水,139.63128999999998,35.66768
22605,上北沢,139.62329,35.668857
22906,八幡山,139.614927,35.669982
23050,芦花公園,139.608247,35.670479
22817,千歳烏山,139.60067,35.667921
22776,仙川,139.584908,35.662257000000004
22823,つつじヶ丘,139.575103,35.657936
22713,柴崎,139.56658000000002,35.653997
22677,国領,139.55803600000002,35.650087
22960,布田,139.551557,35.649904
22816,調布,139.54398799999998,35.652181
22879,西調布,139.529822,35.657169
22838,飛田給,139.523666,35.660121000000004
23012,武蔵野台,139.51128899999998,35.664159000000005
22810,多磨霊園,139.502615,35.666197
22941,東府中,139.495257,35.668766
27632,府中,139.4799,35.672245000000004
22848,中河原,139.457602,35.659549
22765,聖蹟桜ヶ丘,139.446979,35.650814000000004
23021,百草園,139.431285,35.657362
22793,高幡不動,139.41295300000002,35.662361
22997,南平,139.392008,35.654559000000006
22953,平山城址公園,139.379926,35.647371
23590,長沼,139.365849,35.642788
22633,北野,139.354489,35.644479
22657,京王八王子,139.343851,35.657416
22654,京王多摩川,139.536606,35.644498999999996
22652,京王稲田堤,139.531099,35.633895
22659,京王よみうりランド,139.517597,35.632934000000006
22522,稲城,139.500398,35.636165999999996
23372,若葉台,139.472189,35.619325
22656,京王永山,139.448204,35.630102
22655,京王多摩センター,139.42401999999998,35.62518
22658,京王堀之内,139.40031399999998,35.624438
22992,南大沢,139.3798,35.6141
22806,多摩境,139.36698700000002,35.601826
22653,京王片倉,139.33703500000001,35.644343
26229,山田,139.32108200000002,35.644411
23020,めじろ台,139.308446,35.643601000000004
22900,狭間,139.293808,35.640637
22788,高尾山口,139.269856,35.632377000000005
22962,府中競馬正門前,139.485019,35.668288000000004
22808,多摩動物公園,139.404627,35.649215000000005
22745,神泉,139.693579,35.657244
22685,駒場東大前,139.68430800000002,35.65868
22512,池ノ上,139.67344,35.660402000000005
22723,下北沢,139.66691,35.661539000000005
22747,新代田,139.660524,35.662593
22942,東松原,139.65553500000001,35.662634000000004
22542,永福町,139.64273300000002,35.67629
22864,西永福,139.634936,35.678917999999996
22912,浜田山,139.627528,35.681603
22786,高井戸,139.615115,35.683253
22956,富士見ヶ丘,139.607072,35.684805
22644,久我山,139.599211,35.688138
22987,三鷹台,139.58929799999999,35.692046000000005
22525,井の頭公園,139.583112,35.697303999999995
22907,初台,139.686354,35.68123
22903,幡ヶ谷,139.676183,35.677061
22993,南新宿,139.69867,35.683483
22702,参宮橋,139.693568,35.678585999999996
23046,代々木八幡,139.68891299999999,35.669715000000004
23044,代々木上原,139.680153,35.669159
22929,東北沢,139.673014,35.665378999999994
22773,世田谷代田,139.66155700000002,35.65834
22536,梅ヶ丘,139.653628,35.656024
22689,豪徳寺,139.647381,35.653807
22622,経堂,139.63599299999998,35.650991
22818,千歳船橋,139.624544,35.647616
22783,祖師ヶ谷大蔵,139.60965900000002,35.643236
22764,成城学園前,139.598958,35.640114000000004
22636,喜多見,139.587445,35.636697
22682,狛江,139.577127,35.632001
22516,和泉多摩川,139.573695,35.627349
23344,向ヶ丘遊園,139.564719,35.617273
23065,生田,139.542024,35.614954
23370,読売ランド前,139.527903,35.614723
23364,百合ヶ丘,139.516121,35.60903
23211,新百合ヶ丘,139.507608,35.603705
23101,柿生,139.497614,35.589597
22824,鶴川,139.481759,35.583077
22804,玉川学園前,139.46338799999998,35.563486
23172,相模大野,139.437836,35.532208000000004
23097,小田急相模原,139.422571,35.515134
23223,相武台前,139.408509,35.499294
23186,座間,139.399899,35.480913
23318,本厚木,139.364261,35.439338
23055,愛甲石田,139.344098,35.417634
23072,伊勢原,139.31376799999998,35.396081
23243,鶴巻温泉,139.27781299999998,35.381130999999996
23248,東海大学前,139.27123600000002,35.373151
23283,秦野,139.226009,35.370075
23199,渋沢,139.184405,35.374032
23209,新松田,139.139848,35.345082
23099,開成,139.135785,35.326532
23125,栢山,139.14258,35.310679
23253,富水,139.145166,35.296759
23315,螢田,139.152036,35.285055
23059,足柄,139.15447,35.271763
23295,東林間,139.438883,35.520540999999994
23231,中央林間,139.444105,35.508066
23337,南林間,139.447911,35.495627
23242,鶴間,139.450572,35.49057
23179,桜ヶ丘,139.465734,35.450486
23155,高座渋谷,139.464854,35.432519
23233,長後,139.465307,35.41261
23191,湘南台,139.466451,35.396488
23350,六会日大前,139.470665,35.383761
23221,善行,139.473199,35.36285
23305,藤沢本町,139.476046,35.348188
23319,本鵠沼,139.475412,35.331129
23138,鵠沼海岸,139.47121,35.320744
23108,片瀬江ノ島,139.482934,35.309345
23182,五月台,139.493542,35.600173999999996
23142,栗平,139.481298,35.605731
24917,黒川,139.470731,35.613203000000006
29505,はるひ野,139.46453400000001,35.618885
22615,唐木田,139.411622,35.616671999999994
22812,代官山,139.703284,35.648193
22855,中目黒,139.698621,35.643854
23035,祐天寺,139.69075800000002,35.637163
22619,学芸大学,139.68522,35.628786
22843,都立大学,139.676393,35.617835
22755,自由が丘,139.66866399999998,35.607224
22826,田園調布,139.667356,35.596815
22803,多摩川,139.668723,35.589591
23210,新丸子,139.66196399999998,35.580490000000005
23353,元住吉,139.654668,35.565698
23297,日吉,139.646944,35.5539
23240,綱島,139.63491000000002,35.536906
23093,大倉山,139.629808,35.52243
23342,妙蓮寺,139.633194,35.498779
23278,白楽,139.627875,35.489554999999996
23292,東白楽,139.62936399999998,35.483523
23229,反町,139.625337,35.474740000000004
22964,不動前,139.71469,35.626526
23007,武蔵小山,139.704524,35.620538
22873,西小山,139.698694,35.615455
22779,洗足,139.694367,35.61043
22557,大岡山,139.685909,35.607456
22575,奥沢,139.672355,35.603947
22511,池尻大橋,139.684319,35.650603000000004
22703,三軒茶屋,139.670156,35.643716
22684,駒沢大学,139.661702,35.633471
22695,桜新町,139.644779,35.631665999999996
23039,用賀,139.633928,35.626436
22958,二子玉川,139.626685,35.611788
23309,二子新地,139.62233799999998,35.606994
25699,高津,139.61693400000001,35.603248
23106,梶が谷,139.605885,35.593963
23338,宮崎台,139.59131299999999,35.587228
23340,宮前平,139.581983,35.584951000000004
23178,鷺沼,139.57326799999998,35.579762
23228,たまプラーザ,139.558447,35.577427
23058,あざみ野,139.55346200000002,35.568645000000004
23085,江田,139.551518,35.558671000000004
23074,市が尾,139.541496,35.551483000000005
23303,藤が丘,139.527655,35.543454
23056,青葉台,139.517376,35.542854999999996
23227,田奈,139.504855,35.536204
22822,つくし野,139.485139,35.527559000000004
22762,すずかけ台,139.481684,35.517094
22998,南町田グランベリーパーク,139.470318,35.511502
23236,つきみ野,139.458651,35.510546000000005
22724,下神明,139.726256,35.608703999999996
22834,戸越公園,139.718159,35.608856
22853,中延,139.712526,35.605709999999995
22547,荏原町,139.707571,35.60382
22904,旗の台,139.70228600000002,35.604923
22631,北千束,139.69330300000001,35.606311
22990,緑が丘,139.679482,35.60638
22647,九品仏,139.660992,35.60538
22589,尾山台,139.653862,35.606971
22837,等々力,139.64793799999998,35.608369
22608,上野毛,139.638917,35.611957000000004
22560,大崎広小路,139.72233899999998,35.622244
22833,戸越銀座,139.714862,35.615928000000004
22546,荏原中延,139.712196,35.610056
22858,長原,139.697881,35.60219
22780,洗足池,139.690896,35.599647999999995
22514,石川台,139.68506299999999,35.596888
23037,雪が谷大塚,139.681083,35.592038
22590,御嶽山,139.682473,35.585236
22643,久が原,139.685678,35.579499
22819,千鳥町,139.69142,35.572983
22510,池上,139.702822,35.572025
22901,蓮沼,139.708544,35.564173
22887,沼部,139.67326,35.582526
22535,鵜の木,139.680554,35.575452
22726,下丸子,139.685576,35.571397
23011,武蔵新田,139.692506,35.567806
23027,矢口渡,139.700389,35.562462
22875,西太子堂,139.666382,35.644545
25241,若林,139.65991100000002,35.645933
22705,松陰神社前,139.655211,35.643947
22772,世田谷,139.650945,35.643564000000005
22609,上町,139.646276,35.643656
23001,宮の坂,139.64494,35.647508
28571,松原,139.642,35.660047999999996
29314,恩田,139.492127,35.545535
23164,こどもの国,139.486657,35.558035
22775,泉岳寺,139.74002,35.638692
22629,北品川,139.739191,35.622458
22752,新馬場,139.741366,35.61762
22483,青物横丁,139.74295800000002,35.609351000000004
22700,鮫洲,139.742227,35.604977000000005
22798,立会川,139.738886,35.598489
22567,大森海岸,139.73543999999998,35.587576
22967,平和島,139.73491,35.57868
22568,大森町,139.732027,35.572431
22538,梅屋敷,139.728266,35.566873
22660,京急蒲田,139.723681,35.560796
22785,雑色,139.715005,35.549725
23051,六郷土手,139.7076,35.540577
23147,京急川崎,139.70089299999998,35.53285
23245,鶴見市場,139.68642,35.517594
23102,花月総持寺,139.672813,35.500358
23261,生麦,139.6673,35.4956
23166,子安,139.64496499999998,35.484556
23112,神奈川新町,139.640152,35.481559000000004
23111,神奈川,139.627364,35.471303999999996
23252,戸部,139.61956,35.456631
23296,日ノ出町,139.626696,35.445524
23159,黄金町,139.62246000000002,35.439694
23334,南太田,139.61340800000002,35.436923
23075,井土ヶ谷,139.60061000000002,35.433895
23145,弘明寺,139.596791,35.42437
23119,上大岡,139.596552,35.409418
23301,屏風浦,139.610387,35.394176
23215,杉田,139.615734,35.383796000000004
23152,京急富岡,139.629772,35.366743
23272,能見台,139.629233,35.360528
23115,金沢文庫,139.621606,35.342966
23113,金沢八景,139.62018,35.331223
23089,追浜,139.624905,35.315461
23150,京急田浦,139.625252,35.300892
23062,安針塚,139.64292,35.286640999999996
23312,逸見,139.65314899999998,35.28048
23196,汐入,139.662443,35.280241
23367,横須賀中央,139.67021699999998,35.27858
23154,県立大学,139.677033,35.269731
23317,堀ノ内,139.686932,35.263220000000004
23146,京急大津,139.695334,35.261068
23325,馬堀海岸,139.707328,35.259651
23084,浦賀,139.714999,35.250933
22674,糀谷,139.72961999999998,35.5545
22565,大鳥居,139.73935600000002,35.552531
22498,穴守稲荷,139.746669,35.550326
22910,天空橋,139.75423,35.548908000000004
29671,羽田空港第3ターミナル,139.768968,35.544676
22911,羽田空港第1・第2ターミナル,139.785962,35.549809
23333,港町,139.712578,35.535014000000004
23216,鈴木町,139.720655,35.53535
23128,川崎大師,139.725946,35.535711
23293,東門前,139.734298,35.536566
23185,大師橋,139.740381,35.536611
23162,小島新田,139.747575,35.534797999999995
23351,六浦,139.611532,35.32269
23214,神武寺,139.592947,35.306233
23208,逗子・葉山,139.58035900000002,35.294189
23203,新大津,139.69016000000002,35.257013
23133,北久里浜,139.686368,35.249355
23274,ＹＲＰ野比,139.685068,35.212229
23153,京急長沢,139.674048,35.20548
23237,津久井浜,139.665279,35.198419
23326,三浦海岸,139.65313799999998,35.188084
23327,三崎口,139.633207,35.177515
22811,田原町,139.790897,35.709897
22524,稲荷町,139.782593,35.711273
22759,末広町,139.77171299999998,35.702971999999995
26101,日本橋,139.773516,35.682078000000004
25901,京橋,139.770126,35.676856
22641,銀座,139.76396499999998,35.671989
22841,虎ノ門,139.749832,35.670235999999996
29194,溜池山王,139.741419,35.673621000000004
22486,赤坂見附,139.737047,35.677021
22484,青山一丁目,139.72415900000001,35.672765000000005
22618,外苑前,139.717857,35.670527
22588,表参道,139.712314,35.665246999999994
22731,新大塚,139.729971,35.72569
22982,茗荷谷,139.737184,35.716989
22675,後楽園,139.75186399999998,35.707898
22973,本郷三丁目,139.75991399999998,35.706671
22506,淡路町,139.767575,35.695434000000006
22564,大手町,139.7662,35.686564000000004
22668,国会議事堂前,139.745219,35.67393
23042,四谷三丁目,139.720103,35.687958
22742,新宿御苑前,139.71069,35.688588
22743,新宿三丁目,139.704895,35.690847
29085,西新宿,139.692778,35.694297999999996
22850,中野坂上,139.68291000000002,35.69792
22749,新中野,139.66903,35.697491
22932,東高円寺,139.657822,35.697802
22735,新高円寺,139.648068,35.697984999999996
22991,南阿佐ケ谷,139.63576,35.699624
22851,中野新橋,139.67399699999999,35.692122999999995
22852,中野富士見町,139.666933,35.690514
22969,方南町,139.656498,35.683496000000005
22999,三ノ輪,139.79148500000002,35.729623
22681,小伝馬町,139.778433,35.690737
22885,人形町,139.782285,35.686307
22614,茅場町,139.78000500000002,35.679752
22821,築地,139.772603,35.668115
22930,東銀座,139.767253,35.669464000000005
22951,日比谷,139.76017,35.67459
22610,神谷町,139.745069,35.662978
23049,六本木,139.73144299999998,35.662836
22954,広尾,139.722202,35.652279
22583,落合,139.687284,35.710976
23054,早稲田,139.721319,35.705723
22591,神楽坂,139.734546,35.703790000000005
22645,九段下,139.751948,35.695589
22797,竹橋,139.75681699999998,35.690661999999996
23024,門前仲町,139.796209,35.671851000000004
22638,木場,139.807042,35.669351
22830,東陽町,139.817596,35.669629
22994,南砂町,139.83065,35.668796
22868,西葛西,139.859259,35.664631
22592,葛西,139.872458,35.663554
22206,浦安,139.893193,35.665932
22453,南行徳,139.902311,35.672686999999996
22265,行徳,139.914254,35.682686
29305,妙典,139.92420900000002,35.690934999999996
22407,原木中山,139.942029,35.703517
22627,北綾瀬,139.83203500000002,35.777117
22782,千駄木,139.763243,35.725549
22888,根津,139.765655,35.7174
23038,湯島,139.769916,35.708242999999996
22883,二重橋前,139.761948,35.681071
22485,赤坂,139.738348,35.67323
22893,乃木坂,139.726215,35.666571999999995
22430,平和台,139.653762,35.757863
22921,氷川台,139.66556699999998,35.74955
22774,千川,139.689271,35.738229
22599,要町,139.698715,35.73323
22924,東池袋,139.719546,35.725732
22690,護国寺,139.72754,35.719044
22545,江戸川橋,139.73353799999998,35.709495000000004
22673,麹町,139.73761299999998,35.684006
22698,桜田門,139.75149,35.677405
22748,新富町,139.77371100000002,35.670462
22820,月島,139.784233,35.664871000000005
22839,豊洲,139.79621,35.654908
22800,辰巳,139.81052,35.645576
22917,半蔵門,139.74163000000001,35.685703000000004
22756,神保町,139.757606,35.695966
22757,水天宮前,139.785377,35.682683000000004
29338,清澄白河,139.798851,35.682105
26413,住吉,139.815681,35.689073
22488,赤羽岩淵,139.722103,35.783417
22718,志茂,139.732599,35.777947999999995
22551,王子神谷,139.73593300000002,35.765172
22869,西ケ原,139.742322,35.746008
29074,本駒込,139.753828,35.724154999999996
29075,東大前,139.758025,35.717633
29324,六本木一丁目,139.739,35.665595
29325,麻布十番,139.737051,35.654682
29326,白金高輪,139.734104,35.642903000000004
29327,白金台,139.726133,35.637917
29635,雑司が谷,139.714795,35.720233
29636,西早稲田,139.709101,35.708242
29331,東新宿,139.707593,35.698915
29637,北参道,139.705453,35.678459000000004
23299,平沼橋,139.616897,35.460355
23268,西横浜,139.608745,35.453437
23247,天王町,139.602554,35.453984000000005
23314,星川,139.59481599999998,35.458634
23375,和田町,139.58678600000002,35.463597
23121,上星川,139.58007800000001,35.467694
23267,西谷,139.565721,35.478092
23241,鶴ヶ峰,139.549586,35.475031
23310,二俣川,139.532207,35.463335
23136,希望ヶ丘,139.5143,35.460399
23329,三ツ境,139.50266200000002,35.467779
23218,瀬谷,139.482574,35.470411999999996
23171,相模大塚,139.441232,35.470665999999994
23176,さがみ野,139.429055,35.471484999999994
23105,かしわ台,139.415851,35.466744
23336,南万騎が原,139.526344,35.452521999999995
23371,緑園都市,139.521841,35.439502000000005
23361,弥生台,139.50661499999998,35.429933
23070,いずみ野,139.495135,35.429434
23069,いずみ中央,139.48727,35.415385
29256,ゆめが丘,139.482192,35.405436
29682,羽沢横浜国大,139.586389,35.481389
29213,都庁前,139.69257,35.690551
29330,新宿西口,139.69915500000002,35.693315000000005
29332,若松河田,139.718184,35.699218
29333,牛込柳町,139.725027,35.699518
29334,牛込神楽坂,139.735802,35.700851
22595,春日,139.75325,35.709598
29336,新御徒町,139.781958,35.707045
22651,蔵前,139.790931,35.703236
23023,森下,139.797042,35.68796
29339,勝どき,139.776442,35.658507
29340,築地市場,139.76691499999998,35.664895
29438,汐留,139.760642,35.663703000000005
22815,大門,139.75466,35.656785
29341,赤羽橋,139.743642,35.655007
29321,国立競技場,139.714932,35.679831
29214,西新宿五丁目,139.684304,35.689797999999996
29215,落合南長崎,139.683303,35.723608
29216,新江古田,139.67065300000002,35.732538
22890,練馬春日町,139.64023600000002,35.751452
22920,光が丘,139.628603,35.758526
22882,西馬込,139.705942,35.586859000000004
22975,馬込,139.711772,35.596435
22791,高輪台,139.73030500000002,35.631679
26373,三田,139.748775,35.648179999999996
22974,本所吾妻橋,139.804624,35.70858
22712,芝公園,139.749824,35.654074
22584,御成門,139.75153500000002,35.661215000000006
22534,内幸町,139.75561000000002,35.66975
27718,白山,139.752136,35.721408000000004
22777,千石,139.744792,35.727957
22874,西巣鴨,139.728712,35.743508
22729,新板橋,139.720101,35.748785
22518,板橋区役所前,139.710102,35.751284000000005
22519,板橋本町,139.705535,35.761339
23022,本蓮沼,139.702324,35.768782
22716,志村坂上,139.69538,35.775725
22717,志村三丁目,139.68593700000002,35.777390999999994
22902,蓮根,139.678993,35.784335
22878,西台,139.673971,35.78699
22789,高島平,139.661216,35.789056
22746,新高島平,139.654275,35.790189
22876,西高島平,139.64594,35.791833000000004
22493,曙橋,139.722881,35.692402
22527,岩本町,139.77586599999998,35.695534
22913,浜町,139.788154,35.688516
22624,菊川,139.806016,35.688379
22866,西大島,139.826206,35.689349
24389,大島,139.83565,35.689904999999996
22927,東大島,139.84596299999998,35.690355
22965,船堀,139.864258,35.683795
22521,一之江,139.882934,35.686054999999996
22984,瑞江,139.89761000000001,35.693318
22711,篠崎,139.903698,35.706016999999996
23000,三ノ輪橋,139.791412,35.732248
29329,荒川一中前,139.788988,35.733659
22501,荒川区役所前,139.78645600000002,35.73493
22504,荒川二丁目,139.784696,35.738623
22503,荒川七丁目,139.78417,35.741975
22980,町屋二丁目,139.776625,35.743837
22928,東尾久三丁目,139.77438600000002,35.745398
22649,熊野前,139.769204,35.749212
23003,宮ノ前,139.76495500000001,35.750135
22579,小台,139.761779,35.750578999999995
22505,荒川遊園地前,139.757767,35.750744
22502,荒川車庫前,139.752617,35.750909
22594,梶原,139.747403,35.751162
29262,栄町,139.742124,35.750909
22497,飛鳥山,139.737382,35.750248
22795,滝野川一丁目,139.735376,35.747374
22870,西ヶ原四丁目,139.732779,35.744501
22736,新庚申塚,139.730451,35.741347999999995
22672,庚申塚,139.72974299999998,35.739563000000004
22761,巣鴨新田,139.727769,35.735488000000004
27425,向原,139.724894,35.728938
22784,都電雑司ヶ谷,139.718006,35.724261
22620,学習院下,139.71247,35.716248
22587,面影橋,139.714444,35.712981
22097,西羽生,139.523986,36.17635
22056,新郷,139.510474,36.171316999999995
22126,武州荒木,139.48856899999998,36.162614000000005
22112,東行田,139.468394,36.147265000000004
22027,行田市,139.458851,36.143759
22156,持田,139.44155,36.137615000000004
29776,ソシオ流通センター,139.42433300000002,36.1365
22006,上熊谷,139.38134,36.142657
25593,石原,139.368901,36.147612
29449,ひろせ野鳥の森,139.352086,36.146242
21983,大麻生,139.331859,36.144612
21967,明戸,139.303306,36.142958
22070,武川,139.281714,36.142196999999996
29777,ふかや花園,139.251472,36.132056
21996,小前田,139.222386,36.12895
24197,桜沢,139.206981,36.128671999999995
22099,波久礼,139.158078,36.126728
22119,樋口,139.122226,36.131076
22098,野上,139.110865,36.11157
22087,長瀞,139.112346,36.095462
22007,上長瀞,139.11319,36.086169
21997,親鼻,139.106103,36.077539
22141,皆野,139.093947,36.068682
22031,和銅黒谷,139.101666,36.046671
21985,大野原,139.09407099999999,36.018586
22075,秩父,139.086044,35.99883
21994,御花畑,139.08361399999998,35.992369000000004
21999,影森,139.068413,35.972015
21981,浦山口,139.058134,35.963922
22128,武州中川,139.035439,35.958346999999996
22130,武州日野,139.021888,35.953866999999995
22052,白久,138.99326299999998,35.95895
22140,三峰口,138.97870600000002,35.960075
29350,川口元郷,139.730043,35.800187
29351,南鳩ヶ谷,139.736059,35.816839
29352,鳩ヶ谷,139.735967,35.830859000000004
29353,新井宿,139.737908,35.842974
29354,戸塚安行,139.75368899999998,35.858872999999996
29355,浦和美園,139.72779,35.893677000000004
22396,西大原,140.378029,35.260407
22229,上総東,140.344974,35.263313000000004
22394,新田野,140.328081,35.276408
22270,国吉,140.314046,35.280497
22239,上総中川,140.28063600000002,35.282763
29647,城見ヶ丘,140.252693,35.291740999999995
22213,大多喜,140.243833,35.286466
22223,小谷松,140.251142,35.268938
22414,東総元,140.24738100000002,35.259314
22268,久我原,140.247718,35.250265
22423,総元,140.240413,35.240588
22400,西畑,140.215176,35.25051
22240,上総中野,140.199571,35.250051
29398,青井,139.82038,35.771782
29399,六町,139.82181599999998,35.784963
29400,八潮,139.84501699999998,35.807905
29401,三郷中央,139.878344,35.824514
29402,流山セントラルパーク,139.915223,35.854552000000005
29404,柏の葉キャンパス,139.95245400000002,35.89308
29405,柏たなか,139.957533,35.9109
21718,守谷,139.992209,35.950626
29406,みらい平,140.038555,35.99514
29407,みどりの,140.056276,36.03025
26135,万博記念公園,140.059256,36.058409999999995
29409,研究学園,140.082256,36.0821
29410,つくば,140.110604,36.0825
29479,新高島,139.626499,35.46192
29480,みなとみらい,139.632386,35.458028000000006
29481,馬車道,139.636175,35.450134999999996
29482,日本大通り,139.642608,35.446821
29483,元町・中華街,139.650446,35.44243
29051,竹芝,139.76203700000002,35.654099
29052,日の出,139.75906,35.649136
29053,芝浦ふ頭,139.757852,35.641773
29054,お台場海浜公園,139.778607,35.629813
29055,台場,139.771435,35.625908
29056,東京国際クルーズターミナル,139.773157,35.621462
29057,テレコムセンター,139.779327,35.617593
29058,青海,139.781132,35.62467
29059,東京ビッグサイト,139.791228,35.630158
29060,有明,139.79326899999998,35.634596
29554,有明テニスの森,139.78888,35.639964
29555,市場前,139.78564,35.645684
29556,新豊洲,139.789996,35.648718
21894,下新田,139.315086,36.407776
21853,運動公園,139.300852,36.42038
21858,大間々,139.277559,36.434616999999996
21866,上神梅,139.257696,36.470053
25216,本宿,139.259306,36.481390999999995
21951,水沼,139.277579,36.499866
21936,花輪,139.30768999999998,36.520809
21883,小中,139.337842,36.535644
24897,神戸,139.35653,36.537467
21912,沢入,139.396314,36.58064
21814,原向,139.420593,36.617284000000005
21792,通洞,139.439671,36.636837
21726,足尾,139.447773,36.641853000000005
21822,間藤,139.450078,36.653507
22356,地区センター,140.15504099999998,35.726225
22292,公園,140.15375500000002,35.730758
22336,女子大,140.155054,35.738357
22353,中学校,140.14841,35.740123
23332,緑町,139.158578,35.259226
23066,井細田,139.157397,35.268964000000004
23170,五百羅漢,139.15575800000002,35.27519
23061,穴部,139.148787,35.279887
23064,飯田岡,139.13910900000002,35.287913
23175,相模沼田,139.13394499999998,35.292334000000004
23080,岩原,139.12878999999998,35.298825
23235,塚原,139.126632,35.301305
23373,和田河原,139.118684,35.31585
23307,富士フイルム前,139.109483,35.317657000000004
23230,大雄山,139.10365,35.319046
21580,阿字ヶ浦,140.61244,36.383528999999996
21586,磯崎,140.61793400000002,36.37781
21702,平磯,140.607575,36.357546
21669,殿山,140.601087,36.349497
21678,那珂湊,140.587716,36.345453000000006
29727,高田の鉄橋,140.580028,36.352556
21676,中根,140.56213799999998,36.367488
21616,金上,140.534132,36.382319
29251,工機前,140.524542,36.388099
21358,中川,139.56984599999998,35.562973
23219,センター北,139.57845700000001,35.55353
23220,センター南,139.574291,35.545476
23258,仲町台,139.58971499999998,35.535258
23265,新羽,139.612065,35.527701
23213,北新横浜,139.612818,35.519271
23131,岸根公園,139.617065,35.496038
23107,片倉町,139.606511,35.490204999999996
23330,三ツ沢上町,139.605395,35.476526
23331,三ツ沢下町,139.61481,35.476512
23225,高島町,139.623548,35.458804
23071,伊勢佐木長者町,139.633176,35.441044
23288,阪東橋,139.624843,35.437434
23369,吉野町,139.618455,35.435489000000004
23322,蒔田,139.610123,35.429935
23158,港南中央,139.590958,35.401049
23120,上永谷,139.572713,35.401391
23201,下永谷,139.55938899999998,35.402677000000004
23321,舞岡,139.551509,35.402685
29289,踊場,139.518058,35.405922
27644,中田,139.511301,35.411161
29291,立場,139.500177,35.414296
29292,下飯田,139.483195,35.403503
23264,南部市場,139.633163,35.380192
23254,鳥浜,139.641704,35.377187
23262,並木北,139.642743,35.372015000000005
23263,並木中央,139.642945,35.365505
23181,幸浦,139.643706,35.358406
23184,産業振興センター,139.646326,35.353390000000005
23302,福浦,139.648517,35.349627000000005
23197,市大医学部,139.650156,35.343965999999995
23276,八景島,139.64078999999998,35.340914
23082,海の公園柴口,139.635846,35.342086
23083,海の公園南口,139.632096,35.337225
23273,野島公園,139.631524,35.330559
21680,西取手,140.059437,35.908584000000005
21665,寺原,140.054551,35.911825
21649,新取手,140.0421,35.917657
29689,ゆめみ野,140.034789,35.921129
21590,稲戸井,140.02268999999998,35.926142
21667,戸頭,140.014263,35.92951
21715,南守谷,140.00212,35.934224
21651,新守谷,139.985864,35.966344
21632,小絹,139.983328,35.981151000000004
21708,水海道,139.99137,36.017828
21627,北水海道,139.9928,36.032123
21675,中妻,139.990714,36.047290999999994
21709,三妻,139.98305200000001,36.073507
21711,南石下,139.97393799999998,36.102261999999996
21585,石下,139.974323,36.117041
21660,玉村,139.96995900000002,36.135498999999996
21653,宗道,139.970573,36.153589000000004
21646,下妻,139.964461,36.182325
21662,大宝,139.970193,36.203159
21670,騰波ノ江,139.976274,36.223232
21629,黒子,139.97513999999998,36.247396
21599,大田郷,139.959724,36.278258
21591,入地,140.157266,35.91899
21724,竜ヶ崎,140.17893700000002,35.908586
23068,石上,139.485572,35.332482
23356,柳小路,139.485189,35.327352000000005
23137,鵠沼,139.482637,35.321447
23190,湘南海岸公園,139.4833,35.315203000000004
23086,江ノ島,139.487581,35.311003
23161,腰越,139.493286,35.308287
23117,鎌倉高校前,139.500535,35.306698
23198,七里ヶ浜,139.510101,35.306243
23077,稲村ヶ崎,139.522322,35.30426
23169,極楽寺,139.528721,35.309318
23282,長谷,139.536168,35.311265
23362,由比ヶ浜,139.54157,35.312857
23374,和田塚,139.545362,35.31372
21984,鉄道博物館,139.617796,35.920271
22009,加茂宮,139.61668799999998,35.93568
22116,東宮原,139.618054,35.94262
22039,今羽,139.619443,35.949940999999995
22166,吉野原,139.62086200000002,35.957065
22105,原市,139.622531,35.964071999999994
22046,沼南,139.623481,35.971165
26552,丸山,139.62471100000002,35.979890000000005
22049,志久,139.62228000000002,35.991099
21975,伊奈中央,139.61709399999998,35.999537
22104,羽貫,139.608608,36.007311
21980,内宿,139.599878,36.014163
26504,浜,140.40055700000002,36.116586
21689,東水戸,140.51601200000002,36.361746000000004
21664,常澄,140.558997,36.340683
21598,大洗,140.562675,36.315342
21701,涸沼,140.527356,36.266054
21610,鹿島旭,140.512601,36.224658000000005
21668,徳宿,140.514441,36.190356
21650,新鉾田,140.520408,36.152696999999996
21626,北浦湖畔,140.53684099999998,36.120453000000005
21654,大洋,140.576413,36.108340999999996
21614,鹿島灘,140.596789,36.075568
21611,鹿島大野,140.609855,36.050674
21687,長者ヶ浜潮騒はまなす公園前,140.618849,36.031335999999996
21630,荒野台,140.625194,36.016804
29437,芝山千代田,140.399215,35.754248
22244,上総村上,140.100355,35.496171000000004
22184,海士有木,140.12426399999998,35.481729
22242,上総三又,140.12672,35.465920000000004
22245,上総山田,140.126128,35.454105
22295,光風台,140.114174,35.439662
22204,馬立,140.114719,35.423795
22231,上総牛久,140.142255,35.400213
22235,上総川間,140.150968,35.388047
22238,上総鶴舞,140.165006,35.381346
22237,上総久保,140.154438,35.367481
22344,高滝,140.150246,35.353074
22309,里見,140.145505,35.336684999999996
22192,飯給,140.142358,35.320512
22369,月崎,140.13939399999998,35.302203000000006
22232,上総大久保,140.145924,35.283367
22476,養老渓谷,140.159382,35.266409
23308,富士見町,139.529277,35.345389000000004
23193,湘南町屋,139.522666,35.337832
23192,湘南深沢,139.518903,35.332865000000005
23266,西鎌倉,139.50436499999998,35.319383
23109,片瀬山,139.496052,35.317256
23352,目白山下,139.491533,35.31402
21954,南高崎,139.012315,36.312470000000005
29744,佐野のわたし,139.018139,36.302389
21935,根小屋,139.019177,36.291114
29379,高崎商科大学前,139.029654,36.284295
21960,山名,139.038098,36.277587
21931,西山名,139.032046,36.270841
21948,馬庭,139.009321,36.261428
21963,吉井,138.984418,36.256036
21932,西吉井,138.965914,36.255753000000006
21904,上州新屋,138.951776,36.256036
21905,上州福島,138.92944,36.256408
21939,東富岡,138.901898,36.260816
21902,上州富岡,138.891851,36.260459999999995
21929,西富岡,138.882786,36.260182
21903,上州七日市,138.874536,36.258666
21901,上州一ノ宮,138.863924,36.253053
21864,神農原,138.843835,36.242629
21924,南蛇井,138.81383799999998,36.23826
21910,千平,138.798543,36.230021
21895,下仁田,138.78668100000002,36.210484
21916,中央前橋,139.07531,36.390915
21906,城東,139.081124,36.391212
21952,三俣,139.089192,36.393747999999995
21862,片貝,139.095597,36.393982
21865,上泉,139.106598,36.39419
21900,心臓血管センター,139.129614,36.405590000000004
21854,江木,139.133391,36.407209
21855,大胡,139.156263,36.412673
21941,樋越,139.17330800000002,36.415459000000006
21872,北原,139.184604,36.413681
21843,新屋,139.19657,36.413703999999996
21861,粕川,139.210943,36.416818
21911,膳,139.22197,36.416821
21926,新里,139.236949,36.418543
24980,新川,139.25753600000002,36.418288000000004
27555,東新川,139.26759099999998,36.422002
29577,桐生球場前,139.29786399999998,36.41928
21918,天王宿,139.308054,36.414975
21943,富士山下,139.315828,36.413992
21949,丸山下,139.32128,36.416841999999995
21927,西桐生,139.33268999999999,36.414142
22329,新津田沼,140.023745,35.690184
22436,前原,140.02754199999998,35.700666
22467,薬園台,140.037599,35.710271
22390,習志野,140.042787,35.715293
22260,北習志野,140.042195,35.721328
22345,高根木戸,140.034923,35.726625
22346,高根公団,140.029382,35.730436
22348,滝不動,140.02622,35.737957
22449,三咲,140.028514,35.749217
22425,二和向台,140.023731,35.753825
22250,鎌ヶ谷大仏,140.013823,35.757827
22404,初富,140.000493,35.771992
22261,北初富,139.989811,35.776692
22271,くぬぎ山,139.975707,35.782343
22462,元山,139.975831,35.790229
22303,五香,139.96579599999998,35.797281
22375,常盤平,139.949522,35.803191
22458,みのり台,139.929466,35.789346
22445,松戸新田,139.922833,35.790652
22252,上本郷,139.916031,35.789524
21645,下館二高前,139.972193,36.319137
21608,折本,139.97123200000001,36.340684
21815,ひぐち,139.970057,36.357882000000004
21761,久下田,139.971756,36.376059999999995
21794,寺内,139.980077,36.410876
21827,真岡,140.002632,36.439144
21757,北真岡,140.014061,36.449090000000005
21809,西田井,140.04876000000002,36.453407
25641,北山,140.067708,36.455665
21821,益子,140.088526,36.462965000000004
21805,七井,140.09439,36.491814
21788,多田羅,140.089795,36.515921999999996
21732,市塙,140.110218,36.538028999999995
21770,笹原田,140.14483700000002,36.533910999999996
21795,天矢場,140.15610900000001,36.529292
21828,茂木,140.181382,36.530851
27287,市役所前,140.107757,35.606878
29263,葭川公園,140.120142,35.608551
26348,県庁前,140.12222,35.603958
22362,千葉公園,140.117944,35.619774
22305,作草部,140.11531399999998,35.625806
22371,天台,140.112902,35.631446999999994
22181,穴川,140.111849,35.639645
22339,スポーツセンター,140.11611000000002,35.643164
22380,動物公園,140.125437,35.642585
22450,みつわ台,140.134873,35.6387
23538,桜木,140.16093500000002,35.631308000000004
22219,小倉台,140.171873,35.627755
22359,千城台北,140.181972,35.627435999999996
22358,千城台,140.18856,35.622314
22297,小金城趾,139.916887,35.836009999999995
22420,鰭ヶ崎,139.911121,35.840948
22384,流山,139.90176599999998,35.855771000000004
29295,松が谷,139.422201,35.63169
29296,大塚・帝京大学,139.416461,35.636878
29297,中央大学・明星大学,139.408672,35.64197
29298,程久保,139.410698,35.655093
29299,万願寺,139.42007900000002,35.671248999999996
29300,甲州街道,139.409191,35.678262
29301,柴崎体育館,139.409191,35.689475
29302,立川南,139.412546,35.696077
29238,立川北,139.41253999999998,35.699502
27724,高松,139.413242,35.710158
29236,立飛,139.41738700000002,35.714717
29235,泉体育館,139.419525,35.718775
29234,砂川七番,139.418097,35.723319000000004
29233,桜街道,139.416653,35.739000000000004
29232,上北台,139.415822,35.745824
22381,仲ノ町,140.833871,35.728813
22254,観音,140.840112,35.728952
22461,本銚子,140.84784399999998,35.731055
22227,笠上黒生,140.85689299999999,35.728427
22395,西海鹿島,140.860207,35.725131
22178,海鹿島,140.86309599999998,35.722089000000004
22263,君ヶ浜,140.860527,35.714093
22199,犬吠,140.860935,35.706258
22374,外川,140.857322,35.699314
22825,天王洲アイル,139.750675,35.622908
22554,大井競馬場前,139.74708,35.595006
23047,流通センター,139.748964,35.58186
22706,昭和島,139.74991799999998,35.570656
22766,整備場,139.753366,35.555125
22744,新整備場,139.786777,35.542773
25684,東雲,139.804395,35.640987
29072,国際展示場,139.791617,35.634409999999995
29073,東京テレポート,139.778896,35.62753
29439,品川シーサイド,139.749549,35.608523999999996
29078,東海神,139.980343,35.705888
29079,飯山満,140.0223,35.71407
29080,船橋日大前,140.058962,35.726931
29081,八千代緑が丘,140.073461,35.728884
29082,八千代中央,140.103713,35.727807
24079,村上,140.118375,35.72371
23279,箱根板橋,139.14516899999998,35.245169
23103,風祭,139.129104,35.246229
23078,入生田,139.121244,35.240894
23280,箱根湯本,139.10374299999998,35.233554999999996
23249,塔ノ沢,139.09401599999998,35.234521
23095,大平台,139.073849,35.238664
23339,宮ノ下,139.063052,35.241913000000004
23167,小涌谷,139.05316200000001,35.240373999999996
23232,彫刻の森,139.050856,35.246528999999995
23168,強羅,139.04816200000002,35.25085
22740,新柴又,139.879376,35.75101
23026,矢切,139.899742,35.757503
22259,北国分,139.914252,35.762916
22176,秋山,139.930723,35.765299
22446,松飛台,139.957739,35.775377
22217,大町,139.973567,35.775103
22397,西白井,140.031545,35.784364000000004
22323,白井,140.0541,35.784723
22301,小室,140.076073,35.787003999999996
29033,印西牧の原,140.166911,35.803608000000004
21838,龍王峡,139.71854199999999,36.860909
21754,川治温泉,139.703775,36.884036
21755,川治湯元,139.702772,36.895126
21836,湯西川温泉,139.68823999999998,36.929482
21803,中三依温泉,139.69613999999999,36.985843
21752,上三依塩原温泉口,139.727168,37.014461
21742,男鹿高原,139.72384499999998,37.04784
29618,赤土小学校前,139.76898899999998,35.742453999999995
29620,足立小台,139.77038100000001,35.754658
29621,扇大橋,139.77080800000002,35.763897
27099,高野,139.770679,35.768359000000004
29623,江北,139.770306,35.774021000000005
29624,西新井大師西,139.770094,35.781504999999996
29625,谷在家,139.770043,35.788774
29626,舎人公園,139.770183,35.79623
29627,舎人,139.770108,35.8057
29628,見沼代親水公園,139.77071899999999,35.814544
29629,川和町,139.548745,35.52802
29630,都筑ふれあいの丘,139.561359,35.536583
28756,北山田,139.59225800000002,35.561077000000004
29632,東山田,139.604369,35.554302
28482,高田,139.619944,35.549713
29634,日吉本町,139.633554,35.549883
29728,公園下,139.045639,35.249944
29729,公園上,139.04316699999998,35.249083
29730,中強羅,139.040556,35.248166999999995
29731,上強羅,139.038056,35.247306
29732,早雲山,139.03561100000002,35.246444
